$GPGGA,153656.619,5257.433,N,00130.213,W,1,12,1.0,0.0,M,0.0,M,,*73
$GPGSA,A,3,01,02,03,04,05,06,07,08,09,10,11,12,1.0,1.0,1.0*30
$GPRMC,153656.619,A,5257.433,N,00130.213,W,9385.2,089.6,290425,000.0,W*5D
$GPGGA,153657.619,5257.452,N,00125.888,W,1,12,1.0,0.0,M,0.0,M,,*79
$GPGSA,A,3,01,02,03,04,05,06,07,08,09,10,11,12,1.0,1.0,1.0*30
$GPRMC,153657.619,A,5257.452,N,00125.888,W,9385.2,089.6,290425,000.0,W*57
$GPGGA,153658.619,5257.470,N,00121.563,W,1,12,1.0,0.0,M,0.0,M,,*7A
$GPGSA,A,3,01,02,03,04,05,06,07,08,09,10,11,12,1.0,1.0,1.0*30
$GPRMC,153658.619,A,5257.470,N,00121.563,W,9385.1,089.6,290425,000.0,W*57
$GPGGA,153659.619,5257.488,N,00117.239,W,1,12,1.0,0.0,M,0.0,M,,*71
$GPGSA,A,3,01,02,03,04,05,06,07,08,09,10,11,12,1.0,1.0,1.0*30
$GPRMC,153659.619,A,5257.488,N,00117.239,W,9385.0,089.6,290425,000.0,W*5D
$GPGGA,153700.619,5257.507,N,00112.914,W,1,12,1.0,0.0,M,0.0,M,,*7B
$GPGSA,A,3,01,02,03,04,05,06,07,08,09,10,11,12,1.0,1.0,1.0*30
$GPRMC,153700.619,A,5257.507,N,00112.914,W,9385.0,089.6,290425,000.0,W*57
$GPGGA,153701.619,5257.525,N,00108.590,W,1,12,1.0,0.0,M,0.0,M,,*71
$GPGSA,A,3,01,02,03,04,05,06,07,08,09,10,11,12,1.0,1.0,1.0*30
$GPRMC,153701.619,A,5257.525,N,00108.590,W,9384.9,089.6,290425,000.0,W*55
$GPGGA,153702.619,5257.544,N,00104.265,W,1,12,1.0,0.0,M,0.0,M,,*74
$GPGSA,A,3,01,02,03,04,05,06,07,08,09,10,11,12,1.0,1.0,1.0*30
$GPRMC,153702.619,A,5257.544,N,00104.265,W,9384.8,089.6,290425,000.0,W*51
$GPGGA,153703.619,5257.562,N,00059.940,W,1,12,1.0,0.0,M,0.0,M,,*74
$GPGSA,A,3,01,02,03,04,05,06,07,08,09,10,11,12,1.0,1.0,1.0*30
$GPRMC,153703.619,A,5257.562,N,00059.940,W,9384.8,089.6,290425,000.0,W*51
$GPGGA,153704.619,5257.580,N,00055.616,W,1,12,1.0,0.0,M,0.0,M,,*7F
$GPGSA,A,3,01,02,03,04,05,06,07,08,09,10,11,12,1.0,1.0,1.0*30
$GPRMC,153704.619,A,5257.580,N,00055.616,W,9384.7,089.6,290425,000.0,W*55
$GPGGA,153705.619,5257.599,N,00051.291,W,1,12,1.0,0.0,M,0.0,M,,*79
$GPGSA,A,3,01,02,03,04,05,06,07,08,09,10,11,12,1.0,1.0,1.0*30
$GPRMC,153705.619,A,5257.599,N,00051.291,W,9384.9,179.9,290425,000.0,W*5C
$GPGGA,153706.619,5254.994,N,00051.281,W,1,12,1.0,0.0,M,0.0,M,,*79
$GPGSA,A,3,01,02,03,04,05,06,07,08,09,10,11,12,1.0,1.0,1.0*30
$GPRMC,153706.619,A,5254.994,N,00051.281,W,9384.8,269.8,290425,000.0,W*5E
$GPGGA,153707.619,5254.983,N,00055.602,W,1,12,1.0,0.0,M,0.0,M,,*75
$GPGSA,A,3,01,02,03,04,05,06,07,08,09,10,11,12,1.0,1.0,1.0*30
$GPRMC,153707.619,A,5254.983,N,00055.602,W,9384.8,269.8,290425,000.0,W*52
$GPGGA,153708.619,5254.972,N,00059.922,W,1,12,1.0,0.0,M,0.0,M,,*75
$GPGSA,A,3,01,02,03,04,05,06,07,08,09,10,11,12,1.0,1.0,1.0*30
$GPRMC,153708.619,A,5254.972,N,00059.922,W,9384.9,269.8,290425,000.0,W*53
$GPGGA,153709.619,5254.961,N,00104.243,W,1,12,1.0,0.0,M,0.0,M,,*73
$GPGSA,A,3,01,02,03,04,05,06,07,08,09,10,11,12,1.0,1.0,1.0*30
$GPRMC,153709.619,A,5254.961,N,00104.243,W,9384.9,269.8,290425,000.0,W*55
$GPGGA,153710.619,5254.950,N,00108.563,W,1,12,1.0,0.0,M,0.0,M,,*70
$GPGSA,A,3,01,02,03,04,05,06,07,08,09,10,11,12,1.0,1.0,1.0*30
$GPRMC,153710.619,A,5254.950,N,00108.563,W,9385.0,269.8,290425,000.0,W*5E
$GPGGA,153711.619,5254.938,N,00112.883,W,1,12,1.0,0.0,M,0.0,M,,*77
$GPGSA,A,3,01,02,03,04,05,06,07,08,09,10,11,12,1.0,1.0,1.0*30
$GPRMC,153711.619,A,5254.938,N,00112.883,W,9385.0,269.8,290425,000.0,W*59
$GPGGA,153712.619,5254.927,N,00117.204,W,1,12,1.0,0.0,M,0.0,M,,*7A
$GPGSA,A,3,01,02,03,04,05,06,07,08,09,10,11,12,1.0,1.0,1.0*30
$GPRMC,153712.619,A,5254.927,N,00117.204,W,9385.0,269.8,290425,000.0,W*54
$GPGGA,153713.619,5254.916,N,00121.524,W,1,12,1.0,0.0,M,0.0,M,,*79
$GPGSA,A,3,01,02,03,04,05,06,07,08,09,10,11,12,1.0,1.0,1.0*30
$GPRMC,153713.619,A,5254.916,N,00121.524,W,9385.1,269.8,290425,000.0,W*56
$GPGGA,153714.619,5254.905,N,00125.845,W,1,12,1.0,0.0,M,0.0,M,,*72
$GPGSA,A,3,01,02,03,04,05,06,07,08,09,10,11,12,1.0,1.0,1.0*30
$GPRMC,153714.619,A,5254.905,N,00125.845,W,9385.1,269.8,290425,000.0,W*5D
$GPGGA,153715.619,5254.894,N,00130.165,W,1,12,1.0,0.0,M,0.0,M,,*75
$GPGSA,A,3,01,02,03,04,05,06,07,08,09,10,11,12,1.0,1.0,1.0*30
$GPRMC,153715.619,A,5254.894,N,00130.165,W,9365.7,180.5,290425,000.0,W*5B
$GPGGA,153716.619,5252.295,N,00130.204,W,1,12,1.0,0.0,M,0.0,M,,*7F
$GPGSA,A,3,01,02,03,04,05,06,07,08,09,10,11,12,1.0,1.0,1.0*30
$GPRMC,153716.619,A,5252.295,N,00130.204,W,9385.2,089.6,290425,000.0,W*51
$GPGGA,153717.619,5252.311,N,00125.888,W,1,12,1.0,0.0,M,0.0,M,,*79
$GPGSA,A,3,01,02,03,04,05,06,07,08,09,10,11,12,1.0,1.0,1.0*30
$GPRMC,153717.619,A,5252.311,N,00125.888,W,9385.1,089.6,290425,000.0,W*54
$GPGGA,153718.619,5252.327,N,00121.572,W,1,12,1.0,0.0,M,0.0,M,,*7F
$GPGSA,A,3,01,02,03,04,05,06,07,08,09,10,11,12,1.0,1.0,1.0*30
$GPRMC,153718.619,A,5252.327,N,00121.572,W,9385.1,089.6,290425,000.0,W*52
$GPGGA,153719.619,5252.344,N,00117.256,W,1,12,1.0,0.0,M,0.0,M,,*7F
$GPGSA,A,3,01,02,03,04,05,06,07,08,09,10,11,12,1.0,1.0,1.0*30
$GPRMC,153719.619,A,5252.344,N,00117.256,W,9385.0,089.6,290425,000.0,W*53
$GPGGA,153720.619,5252.360,N,00112.939,W,1,12,1.0,0.0,M,0.0,M,,*74
$GPGSA,A,3,01,02,03,04,05,06,07,08,09,10,11,12,1.0,1.0,1.0*30
$GPRMC,153720.619,A,5252.360,N,00112.939,W,9385.0,089.6,290425,000.0,W*58
$GPGGA,153721.619,5252.377,N,00108.623,W,1,12,1.0,0.0,M,0.0,M,,*7C
$GPGSA,A,3,01,02,03,04,05,06,07,08,09,10,11,12,1.0,1.0,1.0*30
$GPRMC,153721.619,A,5252.377,N,00108.623,W,9384.9,089.6,290425,000.0,W*58
$GPGGA,153722.619,5252.393,N,00104.307,W,1,12,1.0,0.0,M,0.0,M,,*7A
$GPGSA,A,3,01,02,03,04,05,06,07,08,09,10,11,12,1.0,1.0,1.0*30
$GPRMC,153722.619,A,5252.393,N,00104.307,W,9384.8,089.6,290425,000.0,W*5F
$GPGGA,153723.619,5252.409,N,00059.991,W,1,12,1.0,0.0,M,0.0,M,,*73
$GPGSA,A,3,01,02,03,04,05,06,07,08,09,10,11,12,1.0,1.0,1.0*30
$GPRMC,153723.619,A,5252.409,N,00059.991,W,9384.8,089.6,290425,000.0,W*56
$GPGGA,153724.619,5252.426,N,00055.675,W,1,12,1.0,0.0,M,0.0,M,,*70
$GPGSA,A,3,01,02,03,04,05,06,07,08,09,10,11,12,1.0,1.0,1.0*30
$GPRMC,153724.619,A,5252.426,N,00055.675,W,9384.7,089.6,290425,000.0,W*5A
$GPGGA,153725.619,5252.442,N,00051.359,W,1,12,1.0,0.0,M,0.0,M,,*7C
$GPGSA,A,3,01,02,03,04,05,06,07,08,09,10,11,12,1.0,1.0,1.0*30
$GPRMC,153725.619,A,5252.442,N,00051.359,W,9384.9,179.2,290425,000.0,W*52
$GPGGA,153726.619,5249.837,N,00051.301,W,1,12,1.0,0.0,M,0.0,M,,*76
$GPGSA,A,3,01,02,03,04,05,06,07,08,09,10,11,12,1.0,1.0,1.0*30
$GPRMC,153726.619,A,5249.837,N,00051.301,W,9384.7,269.6,290425,000.0,W*50
$GPGGA,153727.619,5249.820,N,00055.613,W,1,12,1.0,0.0,M,0.0,M,,*73
$GPGSA,A,3,01,02,03,04,05,06,07,08,09,10,11,12,1.0,1.0,1.0*30
$GPRMC,153727.619,A,5249.820,N,00055.613,W,9384.8,269.6,290425,000.0,W*5A
$GPGGA,153728.619,5249.802,N,00059.925,W,1,12,1.0,0.0,M,0.0,M,,*7A
$GPGSA,A,3,01,02,03,04,05,06,07,08,09,10,11,12,1.0,1.0,1.0*30
$GPRMC,153728.619,A,5249.802,N,00059.925,W,9384.8,269.6,290425,000.0,W*53
$GPGGA,153729.619,5249.784,N,00104.237,W,1,12,1.0,0.0,M,0.0,M,,*7B
$GPGSA,A,3,01,02,03,04,05,06,07,08,09,10,11,12,1.0,1.0,1.0*30
$GPRMC,153729.619,A,5249.784,N,00104.237,W,9384.9,269.6,290425,000.0,W*53
$GPGGA,153730.619,5249.767,N,00108.548,W,1,12,1.0,0.0,M,0.0,M,,*7D
$GPGSA,A,3,01,02,03,04,05,06,07,08,09,10,11,12,1.0,1.0,1.0*30
$GPRMC,153730.619,A,5249.767,N,00108.548,W,9384.9,269.6,290425,000.0,W*55
$GPGGA,153731.619,5249.749,N,00112.860,W,1,12,1.0,0.0,M,0.0,M,,*7C
$GPGSA,A,3,01,02,03,04,05,06,07,08,09,10,11,12,1.0,1.0,1.0*30
$GPRMC,153731.619,A,5249.749,N,00112.860,W,9385.0,269.6,290425,000.0,W*5C
$GPGGA,153732.619,5249.731,N,00117.172,W,1,12,1.0,0.0,M,0.0,M,,*7F
$GPGSA,A,3,01,02,03,04,05,06,07,08,09,10,11,12,1.0,1.0,1.0*30
$GPRMC,153732.619,A,5249.731,N,00117.172,W,9385.1,269.6,290425,000.0,W*5E
$GPGGA,153733.619,5249.714,N,00121.484,W,1,12,1.0,0.0,M,0.0,M,,*70
$GPGSA,A,3,01,02,03,04,05,06,07,08,09,10,11,12,1.0,1.0,1.0*30
$GPRMC,153733.619,A,5249.714,N,00121.484,W,9385.1,269.6,290425,000.0,W*51
$GPGGA,153734.619,5249.696,N,00125.795,W,1,12,1.0,0.0,M,0.0,M,,*7B
$GPGSA,A,3,01,02,03,04,05,06,07,08,09,10,11,12,1.0,1.0,1.0*30
$GPRMC,153734.619,A,5249.696,N,00125.795,W,9385.2,269.6,290425,000.0,W*59
$GPGGA,153735.619,5249.678,N,00130.107,W,1,12,1.0,0.0,M,0.0,M,,*73
$GPGSA,A,3,01,02,03,04,05,06,07,08,09,10,11,12,1.0,1.0,1.0*30
$GPRMC,153735.619,A,5249.678,N,00130.107,W,9407.9,179.6,290425,000.0,W*55
$GPGGA,153736.619,5247.067,N,00130.078,W,1,12,1.0,0.0,M,0.0,M,,*7F
$GPGSA,A,3,01,02,03,04,05,06,07,08,09,10,11,12,1.0,1.0,1.0*30
$GPRMC,153736.619,A,5247.067,N,00130.078,W,9385.1,089.7,290425,000.0,W*53
$GPGGA,153737.619,5247.078,N,00125.770,W,1,12,1.0,0.0,M,0.0,M,,*7B
$GPGSA,A,3,01,02,03,04,05,06,07,08,09,10,11,12,1.0,1.0,1.0*30
$GPRMC,153737.619,A,5247.078,N,00125.770,W,9385.1,089.7,290425,000.0,W*57
$GPGGA,153738.619,5247.089,N,00121.463,W,1,12,1.0,0.0,M,0.0,M,,*7F
$GPGSA,A,3,01,02,03,04,05,06,07,08,09,10,11,12,1.0,1.0,1.0*30
$GPRMC,153738.619,A,5247.089,N,00121.463,W,9385.0,089.7,290425,000.0,W*52
$GPGGA,153739.619,5247.101,N,00117.155,W,1,12,1.0,0.0,M,0.0,M,,*7A
$GPGSA,A,3,01,02,03,04,05,06,07,08,09,10,11,12,1.0,1.0,1.0*30
$GPRMC,153739.619,A,5247.101,N,00117.155,W,9385.0,089.7,290425,000.0,W*57
$GPGGA,153740.619,5247.112,N,00112.848,W,1,12,1.0,0.0,M,0.0,M,,*76
$GPGSA,A,3,01,02,03,04,05,06,07,08,09,10,11,12,1.0,1.0,1.0*30
$GPRMC,153740.619,A,5247.112,N,00112.848,W,9385.0,089.7,290425,000.0,W*5B
$GPGGA,153741.619,5247.123,N,00108.541,W,1,12,1.0,0.0,M,0.0,M,,*7A
$GPGSA,A,3,01,02,03,04,05,06,07,08,09,10,11,12,1.0,1.0,1.0*30
$GPRMC,153741.619,A,5247.123,N,00108.541,W,9384.9,089.7,290425,000.0,W*5F
$GPGGA,153742.619,5247.134,N,00104.233,W,1,12,1.0,0.0,M,0.0,M,,*71
$GPGSA,A,3,01,02,03,04,05,06,07,08,09,10,11,12,1.0,1.0,1.0*30
$GPRMC,153742.619,A,5247.134,N,00104.233,W,9384.9,089.7,290425,000.0,W*54
$GPGGA,153743.619,5247.146,N,00059.926,W,1,12,1.0,0.0,M,0.0,M,,*73
$GPGSA,A,3,01,02,03,04,05,06,07,08,09,10,11,12,1.0,1.0,1.0*30
$GPRMC,153743.619,A,5247.146,N,00059.926,W,9384.8,089.7,290425,000.0,W*57
$GPGGA,153744.619,5247.157,N,00055.618,W,1,12,1.0,0.0,M,0.0,M,,*7A
$GPGSA,A,3,01,02,03,04,05,06,07,08,09,10,11,12,1.0,1.0,1.0*30
$GPRMC,153744.619,A,5247.157,N,00055.618,W,9384.8,089.7,290425,000.0,W*5E
$GPGGA,153745.619,5247.168,N,00051.311,W,1,12,1.0,0.0,M,0.0,M,,*7F
$GPGSA,A,3,01,02,03,04,05,06,07,08,09,10,11,12,1.0,1.0,1.0*30
$GPRMC,153745.619,A,5247.168,N,00051.311,W,9384.9,180.5,290425,000.0,W*50
$GPGGA,153746.619,5244.563,N,00051.348,W,1,12,1.0,0.0,M,0.0,M,,*7C
$GPGSA,A,3,01,02,03,04,05,06,07,08,09,10,11,12,1.0,1.0,1.0*30
$GPRMC,153746.619,A,5244.563,N,00051.348,W,9384.6,269.5,290425,000.0,W*58
$GPGGA,153747.619,5244.540,N,00055.651,W,1,12,1.0,0.0,M,0.0,M,,*75
$GPGSA,A,3,01,02,03,04,05,06,07,08,09,10,11,12,1.0,1.0,1.0*30
$GPRMC,153747.619,A,5244.540,N,00055.651,W,9384.7,269.5,290425,000.0,W*50
$GPGGA,153748.619,5244.516,N,00059.954,W,1,12,1.0,0.0,M,0.0,M,,*7F
$GPGSA,A,3,01,02,03,04,05,06,07,08,09,10,11,12,1.0,1.0,1.0*30
$GPRMC,153748.619,A,5244.516,N,00059.954,W,9384.8,269.5,290425,000.0,W*55
$GPGGA,153749.619,5244.493,N,00104.257,W,1,12,1.0,0.0,M,0.0,M,,*73
$GPGSA,A,3,01,02,03,04,05,06,07,08,09,10,11,12,1.0,1.0,1.0*30
$GPRMC,153749.619,A,5244.493,N,00104.257,W,9384.9,269.5,290425,000.0,W*58
$GPGGA,153750.619,5244.469,N,00108.559,W,1,12,1.0,0.0,M,0.0,M,,*7B
$GPGSA,A,3,01,02,03,04,05,06,07,08,09,10,11,12,1.0,1.0,1.0*30
$GPRMC,153750.619,A,5244.469,N,00108.559,W,9384.9,269.5,290425,000.0,W*50
$GPGGA,153751.619,5244.446,N,00112.862,W,1,12,1.0,0.0,M,0.0,M,,*79
$GPGSA,A,3,01,02,03,04,05,06,07,08,09,10,11,12,1.0,1.0,1.0*30
$GPRMC,153751.619,A,5244.446,N,00112.862,W,9385.0,269.5,290425,000.0,W*5A
$GPGGA,153752.619,5244.423,N,00117.165,W,1,12,1.0,0.0,M,0.0,M,,*72
$GPGSA,A,3,01,02,03,04,05,06,07,08,09,10,11,12,1.0,1.0,1.0*30
$GPRMC,153752.619,A,5244.423,N,00117.165,W,9385.1,269.5,290425,000.0,W*50
$GPGGA,153753.619,5244.399,N,00121.468,W,1,12,1.0,0.0,M,0.0,M,,*78
$GPGSA,A,3,01,02,03,04,05,06,07,08,09,10,11,12,1.0,1.0,1.0*30
$GPRMC,153753.619,A,5244.399,N,00121.468,W,9385.2,269.5,290425,000.0,W*59
$GPGGA,153754.619,5244.376,N,00125.771,W,1,12,1.0,0.0,M,0.0,M,,*71
$GPGSA,A,3,01,02,03,04,05,06,07,08,09,10,11,12,1.0,1.0,1.0*30
$GPRMC,153754.619,A,5244.376,N,00125.771,W,9385.3,269.5,290425,000.0,W*51
$GPGGA,153755.619,5244.352,N,00130.074,W,1,12,1.0,0.0,M,0.0,M,,*70
$GPGSA,A,3,01,02,03,04,05,06,07,08,09,10,11,12,1.0,1.0,1.0*30
$GPRMC,153755.619,A,5244.352,N,00130.074,W,9412.8,178.6,290425,000.0,W*52
$GPGGA,153756.619,5241.740,N,00129.969,W,1,12,1.0,0.0,M,0.0,M,,*7C
$GPGSA,A,3,01,02,03,04,05,06,07,08,09,10,11,12,1.0,1.0,1.0*30
$GPRMC,153756.619,A,5241.740,N,00129.969,W,9385.2,089.6,290425,000.0,W*52
$GPGGA,153757.619,5241.756,N,00125.671,W,1,12,1.0,0.0,M,0.0,M,,*70
$GPGSA,A,3,01,02,03,04,05,06,07,08,09,10,11,12,1.0,1.0,1.0*30
$GPRMC,153757.619,A,5241.756,N,00125.671,W,9385.1,089.6,290425,000.0,W*5D
$GPGGA,153758.619,5241.771,N,00121.372,W,1,12,1.0,0.0,M,0.0,M,,*78
$GPGSA,A,3,01,02,03,04,05,06,07,08,09,10,11,12,1.0,1.0,1.0*30
$GPRMC,153758.619,A,5241.771,N,00121.372,W,9385.1,089.6,290425,000.0,W*55
$GPGGA,153759.619,5241.787,N,00117.073,W,1,12,1.0,0.0,M,0.0,M,,*77
$GPGSA,A,3,01,02,03,04,05,06,07,08,09,10,11,12,1.0,1.0,1.0*30
$GPRMC,153759.619,A,5241.787,N,00117.073,W,9385.0,089.6,290425,000.0,W*5B
$GPGGA,153800.619,5241.803,N,00112.775,W,1,12,1.0,0.0,M,0.0,M,,*73
$GPGSA,A,3,01,02,03,04,05,06,07,08,09,10,11,12,1.0,1.0,1.0*30
$GPRMC,153800.619,A,5241.803,N,00112.775,W,9385.0,089.6,290425,000.0,W*5F
$GPGGA,153801.619,5241.818,N,00108.476,W,1,12,1.0,0.0,M,0.0,M,,*73
$GPGSA,A,3,01,02,03,04,05,06,07,08,09,10,11,12,1.0,1.0,1.0*30
$GPRMC,153801.619,A,5241.818,N,00108.476,W,9384.9,089.6,290425,000.0,W*57
$GPGGA,153802.619,5241.834,N,00104.177,W,1,12,1.0,0.0,M,0.0,M,,*76
$GPGSA,A,3,01,02,03,04,05,06,07,08,09,10,11,12,1.0,1.0,1.0*30
$GPRMC,153802.619,A,5241.834,N,00104.177,W,9384.8,089.6,290425,000.0,W*53
$GPGGA,153803.619,5241.849,N,00059.879,W,1,12,1.0,0.0,M,0.0,M,,*73
$GPGSA,A,3,01,02,03,04,05,06,07,08,09,10,11,12,1.0,1.0,1.0*30
$GPRMC,153803.619,A,5241.849,N,00059.879,W,9384.8,089.6,290425,000.0,W*56
$GPGGA,153804.619,5241.865,N,00055.580,W,1,12,1.0,0.0,M,0.0,M,,*7D
$GPGSA,A,3,01,02,03,04,05,06,07,08,09,10,11,12,1.0,1.0,1.0*30
$GPRMC,153804.619,A,5241.865,N,00055.580,W,9384.7,089.6,290425,000.0,W*57
$GPGGA,153805.619,5241.881,N,00051.281,W,1,12,1.0,0.0,M,0.0,M,,*74
$GPGSA,A,3,01,02,03,04,05,06,07,08,09,10,11,12,1.0,1.0,1.0*30
$GPRMC,153805.619,A,5241.881,N,00051.281,W,9384.9,178.5,290425,000.0,W*5C
$GPGGA,153806.619,5239.276,N,00051.168,W,1,12,1.0,0.0,M,0.0,M,,*7E
$GPGSA,A,3,01,02,03,04,05,06,07,08,09,10,11,12,1.0,1.0,1.0*30
$GPRMC,153806.619,A,5239.276,N,00051.168,W,9384.4,269.3,290425,000.0,W*5E
$GPGGA,153807.619,5239.242,N,00055.462,W,1,12,1.0,0.0,M,0.0,M,,*73
$GPGSA,A,3,01,02,03,04,05,06,07,08,09,10,11,12,1.0,1.0,1.0*30
$GPRMC,153807.619,A,5239.242,N,00055.462,W,9384.5,269.3,290425,000.0,W*52
$GPGGA,153808.619,5239.208,N,00059.756,W,1,12,1.0,0.0,M,0.0,M,,*7A
$GPGSA,A,3,01,02,03,04,05,06,07,08,09,10,11,12,1.0,1.0,1.0*30
$GPRMC,153808.619,A,5239.208,N,00059.756,W,9384.7,269.3,290425,000.0,W*59
$GPGGA,153809.619,5239.174,N,00104.050,W,1,12,1.0,0.0,M,0.0,M,,*7B
$GPGSA,A,3,01,02,03,04,05,06,07,08,09,10,11,12,1.0,1.0,1.0*30
$GPRMC,153809.619,A,5239.174,N,00104.050,W,9384.8,269.3,290425,000.0,W*57
$GPGGA,153810.619,5239.140,N,00108.344,W,1,12,1.0,0.0,M,0.0,M,,*7E
$GPGSA,A,3,01,02,03,04,05,06,07,08,09,10,11,12,1.0,1.0,1.0*30
$GPRMC,153810.619,A,5239.140,N,00108.344,W,9384.9,269.3,290425,000.0,W*53
$GPGGA,153811.619,5239.106,N,00112.638,W,1,12,1.0,0.0,M,0.0,M,,*78
$GPGSA,A,3,01,02,03,04,05,06,07,08,09,10,11,12,1.0,1.0,1.0*30
$GPRMC,153811.619,A,5239.106,N,00112.638,W,9385.0,269.3,290425,000.0,W*5D
$GPGGA,153812.619,5239.072,N,00116.932,W,1,12,1.0,0.0,M,0.0,M,,*78
$GPGSA,A,3,01,02,03,04,05,06,07,08,09,10,11,12,1.0,1.0,1.0*30
$GPRMC,153812.619,A,5239.072,N,00116.932,W,9385.2,269.3,290425,000.0,W*5F
$GPGGA,153813.619,5239.038,N,00121.226,W,1,12,1.0,0.0,M,0.0,M,,*7D
$GPGSA,A,3,01,02,03,04,05,06,07,08,09,10,11,12,1.0,1.0,1.0*30
$GPRMC,153813.619,A,5239.038,N,00121.226,W,9385.3,269.3,290425,000.0,W*5B
$GPGGA,153814.619,5239.004,N,00125.520,W,1,12,1.0,0.0,M,0.0,M,,*70
$GPGSA,A,3,01,02,03,04,05,06,07,08,09,10,11,12,1.0,1.0,1.0*30
$GPRMC,153814.619,A,5239.004,N,00125.520,W,9385.4,269.3,290425,000.0,W*51
$GPGGA,153815.619,5238.970,N,00129.814,W,1,12,1.0,0.0,M,0.0,M,,*7C
$GPGSA,A,3,01,02,03,04,05,06,07,08,09,10,11,12,1.0,1.0,1.0*30
$GPRMC,153815.619,A,5238.970,N,00129.814,W,9435.5,179.4,290425,000.0,W*55
$GPGGA,153816.619,5236.351,N,00129.766,W,1,12,1.0,0.0,M,0.0,M,,*72
$GPGSA,A,3,01,02,03,04,05,06,07,08,09,10,11,12,1.0,1.0,1.0*30
$GPRMC,153816.619,A,5236.351,N,00129.766,W,9385.2,089.5,290425,000.0,W*5F
$GPGGA,153817.619,5236.371,N,00125.476,W,1,12,1.0,0.0,M,0.0,M,,*7F
$GPGSA,A,3,01,02,03,04,05,06,07,08,09,10,11,12,1.0,1.0,1.0*30
$GPRMC,153817.619,A,5236.371,N,00125.476,W,9385.2,089.5,290425,000.0,W*52
$GPGGA,153818.619,5236.391,N,00121.186,W,1,12,1.0,0.0,M,0.0,M,,*70
$GPGSA,A,3,01,02,03,04,05,06,07,08,09,10,11,12,1.0,1.0,1.0*30
$GPRMC,153818.619,A,5236.391,N,00121.186,W,9385.1,089.5,290425,000.0,W*5E
$GPGGA,153819.619,5236.411,N,00116.897,W,1,12,1.0,0.0,M,0.0,M,,*73
$GPGSA,A,3,01,02,03,04,05,06,07,08,09,10,11,12,1.0,1.0,1.0*30
$GPRMC,153819.619,A,5236.411,N,00116.897,W,9385.0,089.5,290425,000.0,W*5C
$GPGGA,153820.619,5236.431,N,00112.607,W,1,12,1.0,0.0,M,0.0,M,,*78
$GPGSA,A,3,01,02,03,04,05,06,07,08,09,10,11,12,1.0,1.0,1.0*30
$GPRMC,153820.619,A,5236.431,N,00112.607,W,9384.9,089.5,290425,000.0,W*5F
$GPGGA,153821.619,5236.451,N,00108.317,W,1,12,1.0,0.0,M,0.0,M,,*70
$GPGSA,A,3,01,02,03,04,05,06,07,08,09,10,11,12,1.0,1.0,1.0*30
$GPRMC,153821.619,A,5236.451,N,00108.317,W,9384.9,089.5,290425,000.0,W*57
$GPGGA,153822.619,5236.471,N,00104.027,W,1,12,1.0,0.0,M,0.0,M,,*7D
$GPGSA,A,3,01,02,03,04,05,06,07,08,09,10,11,12,1.0,1.0,1.0*30
$GPRMC,153822.619,A,5236.471,N,00104.027,W,9384.8,089.5,290425,000.0,W*5B
$GPGGA,153823.619,5236.491,N,00059.737,W,1,12,1.0,0.0,M,0.0,M,,*7D
$GPGSA,A,3,01,02,03,04,05,06,07,08,09,10,11,12,1.0,1.0,1.0*30
$GPRMC,153823.619,A,5236.491,N,00059.737,W,9384.7,089.5,290425,000.0,W*54
$GPGGA,153824.619,5236.511,N,00055.447,W,1,12,1.0,0.0,M,0.0,M,,*7B
$GPGSA,A,3,01,02,03,04,05,06,07,08,09,10,11,12,1.0,1.0,1.0*30
$GPRMC,153824.619,A,5236.511,N,00055.447,W,9384.7,089.5,290425,000.0,W*52
$GPGGA,153825.619,5236.531,N,00051.158,W,1,12,1.0,0.0,M,0.0,M,,*77
$GPGSA,A,3,01,02,03,04,05,06,07,08,09,10,11,12,1.0,1.0,1.0*30
$GPRMC,153825.619,A,5236.531,N,00051.158,W,9384.9,178.9,290425,000.0,W*53
$GPGGA,153826.619,5233.926,N,00051.077,W,1,12,1.0,0.0,M,0.0,M,,*77
$GPGSA,A,3,01,02,03,04,05,06,07,08,09,10,11,12,1.0,1.0,1.0*30
$GPRMC,153826.619,A,5233.926,N,00051.077,W,9384.3,269.2,290425,000.0,W*51
$GPGGA,153827.619,5233.887,N,00055.362,W,1,12,1.0,0.0,M,0.0,M,,*7F
$GPGSA,A,3,01,02,03,04,05,06,07,08,09,10,11,12,1.0,1.0,1.0*30
$GPRMC,153827.619,A,5233.887,N,00055.362,W,9384.5,269.2,290425,000.0,W*5F
$GPGGA,153828.619,5233.848,N,00059.647,W,1,12,1.0,0.0,M,0.0,M,,*7D
$GPGSA,A,3,01,02,03,04,05,06,07,08,09,10,11,12,1.0,1.0,1.0*30
$GPRMC,153828.619,A,5233.848,N,00059.647,W,9384.6,269.2,290425,000.0,W*5E
$GPGGA,153829.619,5233.809,N,00103.932,W,1,12,1.0,0.0,M,0.0,M,,*7A
$GPGSA,A,3,01,02,03,04,05,06,07,08,09,10,11,12,1.0,1.0,1.0*30
$GPRMC,153829.619,A,5233.809,N,00103.932,W,9384.8,269.2,290425,000.0,W*57
$GPGGA,153830.619,5233.770,N,00108.217,W,1,12,1.0,0.0,M,0.0,M,,*74
$GPGSA,A,3,01,02,03,04,05,06,07,08,09,10,11,12,1.0,1.0,1.0*30
$GPRMC,153830.619,A,5233.770,N,00108.217,W,9384.9,269.2,290425,000.0,W*58
$GPGGA,153831.619,5233.731,N,00112.502,W,1,12,1.0,0.0,M,0.0,M,,*78
$GPGSA,A,3,01,02,03,04,05,06,07,08,09,10,11,12,1.0,1.0,1.0*30
$GPRMC,153831.619,A,5233.731,N,00112.502,W,9385.0,269.2,290425,000.0,W*5C
$GPGGA,153832.619,5233.692,N,00116.787,W,1,12,1.0,0.0,M,0.0,M,,*78
$GPGSA,A,3,01,02,03,04,05,06,07,08,09,10,11,12,1.0,1.0,1.0*30
$GPRMC,153832.619,A,5233.692,N,00116.787,W,9385.2,269.2,290425,000.0,W*5E
$GPGGA,153833.619,5233.653,N,00121.072,W,1,12,1.0,0.0,M,0.0,M,,*7D
$GPGSA,A,3,01,02,03,04,05,06,07,08,09,10,11,12,1.0,1.0,1.0*30
$GPRMC,153833.619,A,5233.653,N,00121.072,W,9385.3,269.2,290425,000.0,W*5A
$GPGGA,153834.619,5233.614,N,00125.357,W,1,12,1.0,0.0,M,0.0,M,,*79
$GPGSA,A,3,01,02,03,04,05,06,07,08,09,10,11,12,1.0,1.0,1.0*30
$GPRMC,153834.619,A,5233.614,N,00125.357,W,9385.5,269.2,290425,000.0,W*58
$GPGGA,153835.619,5233.575,N,00129.642,W,1,12,1.0,0.0,M,0.0,M,,*71
$GPGSA,A,3,01,02,03,04,05,06,07,08,09,10,11,12,1.0,1.0,1.0*30
$GPRMC,153835.619,A,5233.575,N,00129.642,W,9385.5,269.2,290425,000.0,W*50
